nodes:
  2-王耨泵站-后:
    zb: 9.05
    lon: 119.336670674
    lat: 36.809387675
    type: boundary_upstream
    Amin: 500.0
    source: hydraulic_params.json
    updated_at: '2026-04-07T11:56:57+00:00'
  3-夹沟河倒虹闸-闸前:
    zb: 8.5
    lon: 119.394481629
    lat: 36.787399817
    type: junction
    Amin: 500.0
    source: hydraulic_params.json
    updated_at: '2026-04-07T11:56:57+00:00'
  2a-昌邑地表水厂:
    zb: 8.76
    lon: 119.36282554
    lat: 36.792187244
    type: junction
    Amin: 500.0
    source: hydraulic_params.json
    updated_at: '2026-04-07T11:56:57+00:00'
  5-潍河西堤穿涵闸-闸前:
    zb: 8.45
    lon: 119.406172724
    lat: 36.789892582
    type: junction
    Amin: 500.0
    source: hydraulic_params.json
    updated_at: '2026-04-07T11:56:57+00:00'
  9-潍河中堤穿涵闸-闸前:
    zb: 7.68
    lon: 119.423994178
    lat: 36.787728774
    type: junction
    Amin: 500.0
    source: hydraulic_params.json
    updated_at: '2026-04-07T11:56:57+00:00'
  10a-宋庄分水闸-潍坊方向:
    zb: 7.11
    lon: 119.469204336
    lat: 36.767582512
    type: junction
    Amin: 500.0
    source: hydraulic_params.json
    updated_at: '2026-04-07T11:56:57+00:00'
  11-东黄埠节制闸-闸前:
    zb: 7.15
    lon: 119.483617506
    lat: 36.755896471
    type: junction
    Amin: 500.0
    source: hydraulic_params.json
    updated_at: '2026-04-07T11:56:57+00:00'
  13-入吴沟河节制闸-闸前:
    zb: 6.77
    lon: 119.48360869
    lat: 36.696968243
    type: junction
    Amin: 500.0
    source: hydraulic_params.json
    updated_at: '2026-04-07T11:56:57+00:00'
  15-北胶新河倒虹闸-闸前:
    zb: 6.2
    lon: 119.549581519
    lat: 36.693600286
    type: junction
    Amin: 500.0
    source: hydraulic_params.json
    updated_at: '2026-04-07T11:56:57+00:00'
  17-胶莱河倒虹闸-闸前:
    zb: 5.88
    lon: 119.590534704
    lat: 36.68522119
    type: boundary_downstream
    Amin: 500.0
    source: hydraulic_params.json
    updated_at: '2026-04-07T11:56:57+00:00'
  4-夹沟河倒虹闸-闸后:
    zb: 8.5
    lon: 119.395411758
    lat: 36.787296204
    type: junction
    Amin: 500.0
    source: hydraulic_params.json
    updated_at: '2026-04-07T11:56:57+00:00'
  6-潍河西堤穿涵闸-闸后:
    zb: 8.45
    lon: 119.406708985
    lat: 36.790114311
    type: junction
    Amin: 500.0
    source: hydraulic_params.json
    updated_at: '2026-04-07T11:56:57+00:00'
  10-潍河中堤穿涵闸-闸后:
    zb: 7.55
    lon: 119.424516138
    lat: 36.787693012
    type: junction
    Amin: 500.0
    source: hydraulic_params.json
    updated_at: '2026-04-07T11:56:57+00:00'
  12-东黄埠节制闸-闸后:
    zb: 7.15
    lon: 119.483724758
    lat: 36.75536003
    type: junction
    Amin: 500.0
    source: hydraulic_params.json
    updated_at: '2026-04-07T11:56:57+00:00'
  14-入吴沟河节制闸-闸后:
    zb: 6.77
    lon: 119.483658742
    lat: 36.696360275
    type: junction
    Amin: 500.0
    source: hydraulic_params.json
    updated_at: '2026-04-07T11:56:57+00:00'
  16-北胶新河倒虹闸-闸后:
    zb: 6.16
    lon: 119.552505927
    lat: 36.693650353
    type: junction
    Amin: 500.0
    source: hydraulic_params.json
    updated_at: '2026-04-07T11:56:57+00:00'
  7-潍河倒虹吸节点:
    zb: 8.45
    lon: 119.408224814
    lat: 36.790886787
    type: junction
    Amin: 500.0
    source: hydraulic_params.json
    updated_at: '2026-04-07T11:56:57+00:00'
  8-潍河倒虹吸后:
    zb: 7.68
    lon: 119.412593552
    lat: 36.792939571
    type: junction
    Amin: 500.0
    source: hydraulic_params.json
    updated_at: '2026-04-07T11:56:57+00:00'
  16a-北胶新河倒虹吸节点:
    zb: 6.16
    lon: 119.553643184
    lat: 36.69368254
    type: junction
    Amin: 500.0
    source: hydraulic_params.json
    updated_at: '2026-04-07T11:56:57+00:00'
  2b-引黄济峡:
    zb: 8.71
    lon: 119.3795678
    lat: 36.787465142
    type: junction
    Amin: 500.0
    source: hydraulic_params.json
    updated_at: '2026-04-07T11:56:57+00:00'
channels:
- name: 9-宋庄分水闸-东黄埠节制闸
  node1: 10a-宋庄分水闸-潍坊方向
  node2: 11-东黄埠节制闸-闸前
  manning_n: 0.007
  section_count: 2
  source: hydraulic_params.json
- name: 3-引黄济峡-夹沟河倒虹闸
  node1: 2b-引黄济峡
  node2: 3-夹沟河倒虹闸-闸前
  manning_n: 0.008
  section_count: 2
  source: hydraulic_params.json
- name: 10-东黄埠节制闸-入吴沟河节制闸
  node1: 12-东黄埠节制闸-闸后
  node2: 13-入吴沟河节制闸-闸前
  manning_n: 0.006
  section_count: 2
  source: hydraulic_params.json
- name: 2-昌邑地表水厂-引黄济峡
  node1: 2a-昌邑地表水厂
  node2: 2b-引黄济峡
  manning_n: 0.008
  section_count: 2
  source: hydraulic_params.json
- name: 6-潍河西堤穿涵闸-潍河倒虹吸
  node1: 6-潍河西堤穿涵闸-闸后
  node2: 7-潍河倒虹吸节点
  manning_n: 0.007
  section_count: 2
  source: hydraulic_params.json
- name: 1-王耨-昌邑地表水厂
  node1: 2-王耨泵站-后
  node2: 2a-昌邑地表水厂
  manning_n: 0.008
  section_count: 2
  source: hydraulic_params.json
- name: 5-夹沟河倒虹闸-潍河西堤穿涵闸
  node1: 4-夹沟河倒虹闸-闸后
  node2: 5-潍河西堤穿涵闸-闸前
  manning_n: 0.008
  section_count: 2
  source: hydraulic_params.json
- name: 12-北胶新河倒虹闸-胶莱河倒虹闸
  node1: 16a-北胶新河倒虹吸节点
  node2: 17-胶莱河倒虹闸-闸前
  manning_n: 0.008
  section_count: 2
  source: hydraulic_params.json
- name: 11-入吴沟河节制闸-北胶新河倒虹闸
  node1: 14-入吴沟河节制闸-闸后
  node2: 15-北胶新河倒虹闸-闸前
  manning_n: 0.006
  section_count: 2
  source: hydraulic_params.json
- name: 8-潍河中堤穿涵闸-宋庄分水闸
  node1: 10-潍河中堤穿涵闸-闸后
  node2: 10a-宋庄分水闸-潍坊方向
  manning_n: 0.007
  section_count: 2
  source: hydraulic_params.json
- name: 7-潍河倒虹吸-潍河中堤穿涵闸
  node1: 8-潍河倒虹吸后
  node2: 9-潍河中堤穿涵闸-闸前
  manning_n: 0.007
  section_count: 2
  source: hydraulic_params.json
boundaries:
  2-王耨泵站-后:
    type: flow
    value: 29.17
    unit: m3/s
  17-胶莱河倒虹闸-闸前:
    type: level
    value: 8.45
    unit: m
_meta:
  data_type: D1_river_topo
  last_consolidated: '2026-04-12T10:37:17+00:00'
  source_count: 1
data:
  nodes:
  - name: 2-王耨泵站-后
    nodeType: 2
    x: 119.336670674
    y: 36.809387675
    zb: 9.05
  - name: 3-夹沟河倒虹闸-闸前
    nodeType: 0
    x: 119.394481629
    y: 36.787399817
    zb: 8.5
  - name: 2a-昌邑地表水厂
    nodeType: 0
    x: 119.36282554
    y: 36.792187244
    zb: 8.76
  - name: 5-潍河西堤穿涵闸-闸前
    nodeType: 0
    x: 119.406172724
    y: 36.789892582
    zb: 8.45
  - name: 9-潍河中堤穿涵闸-闸前
    nodeType: 0
    x: 119.423994178
    y: 36.787728774
    zb: 7.68
  - name: 10a-宋庄分水闸-潍坊方向
    nodeType: 0
    x: 119.469204336
    y: 36.767582512
    zb: 7.11
  - name: 11-东黄埠节制闸-闸前
    nodeType: 0
    x: 119.483617506
    y: 36.755896471
    zb: 7.15
  - name: 13-入吴沟河节制闸-闸前
    nodeType: 0
    x: 119.48360869
    y: 36.696968243
    zb: 6.77
  - name: 15-北胶新河倒虹闸-闸前
    nodeType: 0
    x: 119.549581519
    y: 36.693600286
    zb: 6.2
  - name: 17-胶莱河倒虹闸-闸前
    nodeType: 1
    x: 119.590534704
    y: 36.68522119
    zb: 5.88
  - name: 4-夹沟河倒虹闸-闸后
    nodeType: 0
    x: 119.395411758
    y: 36.787296204
    zb: 8.5
  - name: 6-潍河西堤穿涵闸-闸后
    nodeType: 0
    x: 119.406708985
    y: 36.790114311
    zb: 8.45
  - name: 10-潍河中堤穿涵闸-闸后
    nodeType: 0
    x: 119.424516138
    y: 36.787693012
    zb: 7.55
  - name: 12-东黄埠节制闸-闸后
    nodeType: 0
    x: 119.483724758
    y: 36.75536003
    zb: 7.15
  - name: 14-入吴沟河节制闸-闸后
    nodeType: 0
    x: 119.483658742
    y: 36.696360275
    zb: 6.77
  - name: 16-北胶新河倒虹闸-闸后
    nodeType: 0
    x: 119.552505927
    y: 36.693650353
    zb: 6.16
  - name: 7-潍河倒虹吸节点
    nodeType: 0
    x: 119.408224814
    y: 36.790886787
    zb: 8.45
  - name: 8-潍河倒虹吸后
    nodeType: 0
    x: 119.412593552
    y: 36.792939571
    zb: 7.68
  - name: 16a-北胶新河倒虹吸节点
    nodeType: 0
    x: 119.553643184
    y: 36.69368254
    zb: 6.16
  - name: 2b-引黄济峡
    nodeType: 0
    x: 119.3795678
    y: 36.787465142
    zb: 8.71
  channels:
  - name: 9-宋庄分水闸-东黄埠节制闸
    node1: 10a-宋庄分水闸-潍坊方向
    node2: 11-东黄埠节制闸-闸前
    manning_n: 0.007
    section_count: 2
  - name: 3-引黄济峡-夹沟河倒虹闸
    node1: 2b-引黄济峡
    node2: 3-夹沟河倒虹闸-闸前
    manning_n: 0.008
    section_count: 2
  - name: 10-东黄埠节制闸-入吴沟河节制闸
    node1: 12-东黄埠节制闸-闸后
    node2: 13-入吴沟河节制闸-闸前
    manning_n: 0.006
    section_count: 2
  - name: 2-昌邑地表水厂-引黄济峡
    node1: 2a-昌邑地表水厂
    node2: 2b-引黄济峡
    manning_n: 0.008
    section_count: 2
  - name: 6-潍河西堤穿涵闸-潍河倒虹吸
    node1: 6-潍河西堤穿涵闸-闸后
    node2: 7-潍河倒虹吸节点
    manning_n: 0.007
    section_count: 2
  - name: 1-王耨-昌邑地表水厂
    node1: 2-王耨泵站-后
    node2: 2a-昌邑地表水厂
    manning_n: 0.008
    section_count: 2
  - name: 5-夹沟河倒虹闸-潍河西堤穿涵闸
    node1: 4-夹沟河倒虹闸-闸后
    node2: 5-潍河西堤穿涵闸-闸前
    manning_n: 0.008
    section_count: 2
  - name: 12-北胶新河倒虹闸-胶莱河倒虹闸
    node1: 16a-北胶新河倒虹吸节点
    node2: 17-胶莱河倒虹闸-闸前
    manning_n: 0.008
    section_count: 2
  - name: 11-入吴沟河节制闸-北胶新河倒虹闸
    node1: 14-入吴沟河节制闸-闸后
    node2: 15-北胶新河倒虹闸-闸前
    manning_n: 0.006
    section_count: 2
  - name: 8-潍河中堤穿涵闸-宋庄分水闸
    node1: 10-潍河中堤穿涵闸-闸后
    node2: 10a-宋庄分水闸-潍坊方向
    manning_n: 0.007
    section_count: 2
  - name: 7-潍河倒虹吸-潍河中堤穿涵闸
    node1: 8-潍河倒虹吸后
    node2: 9-潍河中堤穿涵闸-闸前
    manning_n: 0.007
    section_count: 2
  node_count: 20
  channel_count: 11
  data_points: 31
  source: /Users/rainfields/hydrosis-local/research/wxq-1d/胶东调水王耨-胶莱河/model_1774171029357wxq.json
  quality_score: 0.61
  _auto_generated: '2026-04-12T10:37:17+00:00'
